[
  {
    "name": "Seoul",
    "key": "seoul",
    "station": "RKSI",
    "wu_country": "KR",
    "lat": 37.469, "lon": 126.451, "elev": 7,
    "tz": "Asia/Seoul", "unit": "C",
    "note": "Incheon Intl — coastal island, 48km W of city, 1-3°C cooler (UHI)"
  },
  {
    "name": "Tokyo",
    "key": "tokyo",
    "station": "RJTT",
    "wu_country": "JP",
    "lat": 35.553, "lon": 139.781, "elev": 6,
    "tz": "Asia/Tokyo", "unit": "C",
    "note": "Haneda — Tokyo Bay coastal, 14km S of city"
  },
  {
    "name": "Paris",
    "key": "paris",
    "station": "LFPG",
    "wu_country": "FR",
    "lat": 49.010, "lon": 2.548, "elev": 119,
    "tz": "Europe/Paris", "unit": "C",
    "note": "CDG — suburban/rural, 25km NE, 1-2°C cooler than city"
  },
  {
    "name": "London",
    "key": "london",
    "station": "EGLC",
    "wu_country": "GB",
    "lat": 51.505, "lon": 0.053, "elev": 6,
    "tz": "Europe/London", "unit": "C",
    "note": "London City — urban docklands, 11km E, minimal offset"
  },
  {
    "name": "NYC",
    "key": "nyc",
    "station": "KLGA",
    "wu_country": "US",
    "lat": 40.777, "lon": -73.873, "elev": 6,
    "tz": "America/New_York", "unit": "F",
    "note": "LaGuardia — waterfront, 13km from Manhattan, maritime moderation"
  },
  {
    "name": "Chicago",
    "key": "chicago",
    "station": "KORD",
    "wu_country": "US",
    "lat": 41.979, "lon": -87.905, "elev": 205,
    "tz": "America/Chicago", "unit": "F",
    "note": "O'Hare — NW suburbs, 27km from Loop (Polymarket uses KORD)"
  },
  {
    "name": "Toronto",
    "key": "toronto",
    "station": "CYYZ",
    "wu_country": "CA",
    "lat": 43.678, "lon": -79.625, "elev": 173,
    "tz": "America/Toronto", "unit": "C",
    "note": "Pearson — 22km NW, suburban, higher elev than lakefront"
  },
  {
    "name": "Madrid",
    "key": "madrid",
    "station": "LEMD",
    "wu_country": "ES",
    "lat": 40.472, "lon": -3.563, "elev": 609,
    "tz": "Europe/Madrid", "unit": "C",
    "note": "Barajas — 12km NE, elevated plateau 609m"
  },
  {
    "name": "Singapore",
    "key": "singapore",
    "station": "WSSS",
    "wu_country": "SG",
    "lat": 1.350, "lon": 103.994, "elev": 7,
    "tz": "Asia/Singapore", "unit": "C",
    "note": "Changi — coastal eastern tip, 17km E, sea breeze"
  },
  {
    "name": "Miami",
    "key": "miami",
    "station": "KMIA",
    "wu_country": "US",
    "lat": 25.796, "lon": -80.287, "elev": 3,
    "tz": "America/New_York", "unit": "F",
    "note": "Miami Intl — 13km NW of downtown, subtropical"
  },
  {
    "name": "Buenos Aires",
    "key": "buenos aires",
    "station": "SAEZ",
    "wu_country": "AR",
    "lat": -34.822, "lon": -58.536, "elev": 20,
    "tz": "America/Argentina/Buenos_Aires", "unit": "C",
    "note": "Ezeiza — 35km SW, semi-rural, 1-2°C cooler than city"
  },
  {
    "name": "Taipei",
    "key": "taipei",
    "station": "RCTP",
    "wu_country": "TW",
    "lat": 25.078, "lon": 121.233, "elev": 32,
    "tz": "Asia/Taipei", "unit": "C",
    "note": "Taoyuan — 40km SW of Taipei city, coastal plain"
  },
  {
    "name": "Dallas",
    "key": "dallas",
    "station": "KDAL",
    "wu_country": "US",
    "lat": 32.847, "lon": -96.852, "elev": 148,
    "tz": "America/Chicago", "unit": "F",
    "note": "Love Field — 10km NW of downtown Dallas (Polymarket resolution station)"
  },
  {
    "name": "Atlanta",
    "key": "atlanta",
    "station": "KATL",
    "wu_country": "US",
    "lat": 33.640, "lon": -84.427, "elev": 313,
    "tz": "America/New_York", "unit": "F",
    "note": "Hartsfield-Jackson — 11km S of downtown Atlanta"
  },
  {
    "name": "Seattle",
    "key": "seattle",
    "station": "KSEA",
    "wu_country": "US",
    "lat": 47.449, "lon": -122.309, "elev": 137,
    "tz": "America/Los_Angeles", "unit": "F",
    "note": "Sea-Tac — 20km S of downtown Seattle"
  },
  {
    "name": "Wellington",
    "key": "wellington",
    "station": "NZWN",
    "wu_country": "NZ",
    "lat": -41.327, "lon": 174.805, "elev": 12,
    "tz": "Pacific/Auckland", "unit": "C",
    "note": "Wellington Intl — 6km SE of city, coastal wind exposure"
  },
  {
    "name": "Tel Aviv",
    "key": "tel aviv",
    "station": "LLBG",
    "wu_country": "IL",
    "lat": 32.011, "lon": 34.887, "elev": 41,
    "tz": "Asia/Jerusalem", "unit": "C",
    "note": "Ben Gurion — 20km SE of Tel Aviv, inland"
  },
  {
    "name": "Shanghai",
    "key": "shanghai",
    "station": "ZSPD",
    "wu_country": "CN",
    "lat": 31.143, "lon": 121.805, "elev": 4,
    "tz": "Asia/Shanghai", "unit": "C",
    "note": "Pudong Intl — 30km E of city center (Polymarket resolution station)"
  },
  {
    "name": "Milan",
    "key": "milan",
    "station": "LIMC",
    "wu_country": "IT",
    "lat": 45.630, "lon": 8.723, "elev": 234,
    "tz": "Europe/Rome", "unit": "C",
    "note": "Malpensa — 49km NW of city center (Polymarket resolution station)"
  },
  {
    "name": "Ankara",
    "key": "ankara",
    "station": "LTAC",
    "wu_country": "TR",
    "lat": 40.128, "lon": 32.995, "elev": 953,
    "tz": "Europe/Istanbul", "unit": "C",
    "note": "Esenboğa — 28km NE of Ankara (Polymarket resolution station)"
  },
  {
    "name": "Sao Paulo",
    "key": "sao paulo",
    "station": "SBGR",
    "wu_country": "BR",
    "lat": -23.432, "lon": -46.470, "elev": 750,
    "tz": "America/Sao_Paulo", "unit": "C",
    "note": "Guarulhos Intl — 25km NE of city center"
  },
  {
    "name": "Munich",
    "key": "munich",
    "station": "EDDM",
    "wu_country": "DE",
    "lat": 48.354, "lon": 11.786, "elev": 453,
    "tz": "Europe/Berlin", "unit": "C",
    "note": "Franz Josef Strauss — 28km NE of city center"
  },
  {
    "name": "Lucknow",
    "key": "lucknow",
    "station": "VILK",
    "wu_country": "IN",
    "lat": 26.761, "lon": 80.889, "elev": 128,
    "tz": "Asia/Kolkata", "unit": "C",
    "note": "Chaudhary Charan Singh Intl — 16km SE of city"
  },
  {
    "name": "Warsaw",
    "key": "warsaw",
    "station": "EPWA",
    "wu_country": "PL",
    "lat": 52.166, "lon": 20.967, "elev": 110,
    "tz": "Europe/Warsaw", "unit": "C",
    "note": "Chopin Airport — 10km SW of city center"
  },
  {
    "name": "Hong Kong",
    "key": "hong kong",
    "station": "VHHH",
    "wu_country": "HK",
    "lat": 22.309, "lon": 113.915, "elev": 9,
    "tz": "Asia/Hong_Kong", "unit": "C",
    "note": "Hong Kong International — Chek Lap Kok"
  },
  {
    "name": "Beijing",
    "key": "beijing",
    "station": "ZBAA",
    "wu_country": "CN",
    "lat": 40.080, "lon": 116.584, "elev": 35,
    "tz": "Asia/Shanghai", "unit": "C",
    "note": "Beijing Capital International"
  },
  {
    "name": "Shenzhen",
    "key": "shenzhen",
    "station": "ZGSZ",
    "wu_country": "CN",
    "lat": 22.639, "lon": 113.811, "elev": 4,
    "tz": "Asia/Shanghai", "unit": "C",
    "note": "Shenzhen Bao'an International"
  },
  {
    "name": "Chengdu",
    "key": "chengdu",
    "station": "ZUUU",
    "wu_country": "CN",
    "lat": 30.578, "lon": 103.947, "elev": 495,
    "tz": "Asia/Shanghai", "unit": "C",
    "note": "Chengdu Shuangliu International"
  },
  {
    "name": "Chongqing",
    "key": "chongqing",
    "station": "ZUCK",
    "wu_country": "CN",
    "lat": 29.719, "lon": 106.642, "elev": 416,
    "tz": "Asia/Shanghai", "unit": "C",
    "note": "Chongqing Jiangbei International"
  },
  {
    "name": "Wuhan",
    "key": "wuhan",
    "station": "ZHHH",
    "wu_country": "CN",
    "lat": 30.784, "lon": 114.208, "elev": 23,
    "tz": "Asia/Shanghai", "unit": "C",
    "note": "Wuhan Tianhe International"
  }
]
