[
  { "name": "Madrid",       "lat": 40.4936, "lon": -3.5668, "station": "LEMD", "unit": "C", "poly_name": "Madrid",       "tz": "Europe/Madrid" },
  { "name": "Paris",        "lat": 49.0097, "lon":  2.5478, "station": "LFPG", "unit": "C", "poly_name": "Paris",        "tz": "Europe/Paris" },
  { "name": "London",       "lat": 51.5048, "lon": -0.0495, "station": "EGLC", "unit": "C", "poly_name": "London",       "tz": "Europe/London" },
  { "name": "NYC",          "lat": 40.7769, "lon": -73.8740,"station": "KLGA", "unit": "F", "poly_name": "New York",     "tz": "America/New_York" },
  { "name": "Chicago",      "lat": 41.9742, "lon": -87.9073,"station": "KMDW", "unit": "F", "poly_name": "Chicago",      "tz": "America/Chicago" },
  { "name": "Toronto",      "lat": 43.6772, "lon": -79.6306,"station": "CYYZ", "unit": "C", "poly_name": "Toronto",      "tz": "America/Toronto" },
  { "name": "Seoul",        "lat": 37.4602, "lon": 126.4407,"station": "RKSI", "unit": "C", "poly_name": "Seoul",        "tz": "Asia/Seoul" },
  { "name": "Tokyo",        "lat": 35.5494, "lon": 139.7798,"station": "RJTT", "unit": "C", "poly_name": "Tokyo",        "tz": "Asia/Tokyo" },
  { "name": "Singapore",    "lat":  1.3644, "lon": 103.9915,"station": "WSSS", "unit": "C", "poly_name": "Singapore",    "tz": "Asia/Singapore" },
  { "name": "Buenos Aires", "lat": -34.5597,"lon": -58.4116,"station": "SAEZ", "unit": "C", "poly_name": "Buenos Aires", "tz": "America/Argentina/Buenos_Aires" },
  { "name": "Miami",        "lat": 25.7959, "lon": -80.2870,"station": "KMIA", "unit": "F", "poly_name": "Miami",        "tz": "America/New_York" },
  { "name": "Taipei",       "lat": 25.0777, "lon": 121.2331,"station": "RCTP", "unit": "C", "poly_name": "Taipei",       "tz": "Asia/Taipei" }
]
